city,lat,long,city_popu
Dar es Salaam,-6.8,39.2833,6698000
Arusha,-3.3667,36.6833,416442
Dodoma,-6.1835,35.746,410956
Mwanza,-2.5167,32.9,385810
Tanga,-5.0667,39.1,243580
Mbeya,-8.9,33.45,291649
Morogoro,-6.8242,37.6633,207000
Zanzibar,-6.1667,39.2,205870
Sumbawanga,-7.9667,31.6167,147483
Moshi,-3.3349,37.3404,144739
Kigoma,-4.8833,29.6333,135234
Tabora,-5.0167,32.8,127880
Musoma,-1.5069,33.8042,103497
Songea,-10.6833,35.65,99961
